<ArGpsLocationData><Entry><id>0</id><altitude>0</altitude><altitudeMode>GroundRelative</altitudeMode><name>디엔소프트</name><meshId>logo</meshId><movementSmoothing>0.05</movementSmoothing><maxNumberOfLocationUpdates>0</maxNumberOfLocationUpdates><useMovingAverage>false</useMovingAverage><hideObjectUtilItIsPlaced>false</hideObjectUtilItIsPlaced><lat>37.47948981441395</lat><lng>126.88759920781672</lng></Entry><Entry><id>1</id><altitude>0</altitude><altitudeMode>GroundRelative</altitudeMode><name>마리오아울렛1관</name><meshId>tower</meshId><movementSmoothing>0.05</movementSmoothing><maxNumberOfLocationUpdates>0</maxNumberOfLocationUpdates><useMovingAverage>false</useMovingAverage><hideObjectUtilItIsPlaced>false</hideObjectUtilItIsPlaced><lat>37.47808023721866</lat><lng>126.88749506411745</lng></Entry><Entry><id>2</id><altitude>0</altitude><altitudeMode>GroundRelative</altitudeMode><name>마리오아울렛2관</name><meshId>tower</meshId><movementSmoothing>0.05</movementSmoothing><maxNumberOfLocationUpdates>0</maxNumberOfLocationUpdates><useMovingAverage>false</useMovingAverage><hideObjectUtilItIsPlaced>false</hideObjectUtilItIsPlaced><lat>37.478686312756466</lat><lng>126.88654041354977</lng></Entry><Entry><id>3</id><altitude>0</altitude><altitudeMode>GroundRelative</altitudeMode><name>가산디지털단지역</name><meshId>train</meshId><movementSmoothing>0.05</movementSmoothing><maxNumberOfLocationUpdates>0</maxNumberOfLocationUpdates><useMovingAverage>false</useMovingAverage><hideObjectUtilItIsPlaced>false</hideObjectUtilItIsPlaced><lat>37.48150764101409</lat><lng>126.88266413592345</lng></Entry><Entry><id>4</id><altitude>0</altitude><altitudeMode>GroundRelative</altitudeMode><name>현대아울렛가산점</name><meshId>tower</meshId><movementSmoothing>0.05</movementSmoothing><maxNumberOfLocationUpdates>0</maxNumberOfLocationUpdates><useMovingAverage>false</useMovingAverage><hideObjectUtilItIsPlaced>false</hideObjectUtilItIsPlaced><lat>37.47760654871165</lat><lng>126.88918133839843</lng></Entry><Entry><id>5</id><altitude>0</altitude><altitudeMode>GroundRelative</altitudeMode><name>대륭포스트타워5차</name><meshId>logo</meshId><movementSmoothing>0.05</movementSmoothing><maxNumberOfLocationUpdates>0</maxNumberOfLocationUpdates><useMovingAverage>false</useMovingAverage><hideObjectUtilItIsPlaced>false</hideObjectUtilItIsPlaced><lat>37.48095918227618</lat><lng>126.8864261001022</lng></Entry><Entry><id>6</id><altitude>0</altitude><altitudeMode>GroundRelative</altitudeMode><name>도량천</name><meshId>logo</meshId><movementSmoothing>0.05</movementSmoothing><maxNumberOfLocationUpdates>0</maxNumberOfLocationUpdates><useMovingAverage>false</useMovingAverage><hideObjectUtilItIsPlaced>false</hideObjectUtilItIsPlaced><lat>37.48666145688756</lat><lng>126.89878937941387</lng></Entry></ArGpsLocationData>