<ArGpsLocationData><Entry><id>0</id><lat>37.49081718414985</lat><lng>126.87738605318094</lng><altitude>0</altitude><altitudeMode>GroundRelative</altitudeMode><name>마리오아울렛</name><meshId>logo</meshId><movementSmoothing>0.05</movementSmoothing><maxNumberOfLocationUpdates>0</maxNumberOfLocationUpdates><useMovingAverage>false</useMovingAverage><hideObjectUtilItIsPlaced>true</hideObjectUtilItIsPlaced></Entry><Entry><id>1</id><lat>37.49135875727043</lat><lng>126.87670081173218</lng><altitude>0</altitude><altitudeMode>GroundRelative</altitudeMode><name>마리오아울렛</name><meshId>logo</meshId><movementSmoothing>0.05</movementSmoothing><maxNumberOfLocationUpdates>0</maxNumberOfLocationUpdates><useMovingAverage>false</useMovingAverage><hideObjectUtilItIsPlaced>true</hideObjectUtilItIsPlaced></Entry><Entry><id>2</id><lat>37.49651829257297</lat><lng>126.87049770883715</lng><altitude>0</altitude><altitudeMode>GroundRelative</altitudeMode><name>가산디지털단지역</name><meshId>logo</meshId><movementSmoothing>0.05</movementSmoothing><maxNumberOfLocationUpdates>0</maxNumberOfLocationUpdates><useMovingAverage>false</useMovingAverage><hideObjectUtilItIsPlaced>true</hideObjectUtilItIsPlaced></Entry><Entry><id>3</id><lat>37.49154773250173</lat><lng>126.87881647494379</lng><altitude>0</altitude><altitudeMode>GroundRelative</altitudeMode><name>디엔소프트</name><meshId>logo</meshId><movementSmoothing>0.05</movementSmoothing><maxNumberOfLocationUpdates>0</maxNumberOfLocationUpdates><useMovingAverage>false</useMovingAverage><hideObjectUtilItIsPlaced>true</hideObjectUtilItIsPlaced></Entry><Entry><id>4</id><lat>37.49485971082473</lat><lng>126.87396792790702</lng><altitude>0</altitude><altitudeMode>GroundRelative</altitudeMode><name>구일중학교</name><meshId>logo</meshId><movementSmoothing>0.05</movementSmoothing><maxNumberOfLocationUpdates>0</maxNumberOfLocationUpdates><useMovingAverage>false</useMovingAverage><hideObjectUtilItIsPlaced>true</hideObjectUtilItIsPlaced></Entry><Entry><id>5</id><lat>37.493816925472345</lat><lng>126.87396807958925</lng><altitude>0</altitude><altitudeMode>GroundRelative</altitudeMode><name>구일고등학교</name><meshId>logo</meshId><movementSmoothing>0.05</movementSmoothing><maxNumberOfLocationUpdates>0</maxNumberOfLocationUpdates><useMovingAverage>false</useMovingAverage><hideObjectUtilItIsPlaced>true</hideObjectUtilItIsPlaced></Entry></ArGpsLocationData>